{
  "total": 29,
  "shops": [
    {
      "id": "001",
      "name": "BasilBistro罗勒",
      "category": [
        "餐饮美食"
      ],
      "images": [
        "/店铺图片/BasilBistro罗勒-1.jpg"
      ],
      "description": "一店双境，食与酒的温柔叙事...",
      "address": "坪山大道2011号潮悦荟广场L1-123号",
      "coordinate": {
        "lat": 22.675,
        "lng": 114.284
      },
      "mapPosition": {
        "x": 2667,
        "y": 3069
      }
    },
    {
      "id": "002",
      "name": "六合空间烤吧",
      "category": [
        "餐饮美食"
      ],
      "images": [
        "/店铺图片/六合空间-1.jpg",
        "/店铺图片/六合空间-2.jpg"
      ],
      "description": "六合空间烤吧，位于深圳坪山区坪山大道5019号...",
      "address": "深圳市坪山区坪山大道5019号",
      "coordinate": {
        "lat": 22.698,
        "lng": 114.235
      },
      "mapPosition": {
        "x": 3267,
        "y": 2672
      }
    },
    {
      "id": "003",
      "name": "鹏鹏虾庄·创新土鸡火锅",
      "category": [
        "餐饮美食"
      ],
      "images": [
        "/店铺图片/鹏鹏虾庄·创新土鸡火锅-1.jpg",
        "/店铺图片/鹏鹏虾庄·创新土鸡火锅-2.jpg"
      ],
      "description": "一家属于年轻人的活力小龙虾烧烤小馆...",
      "address": "坪山区宝山第二工业区宝山产业园4栋106",
      "coordinate": {
        "lat": 22.686,
        "lng": 114.248
      },
      "mapPosition": {
        "x": 2876,
        "y": 2692
      }
    },
    {
      "id": "004",
      "name": "深圳市坪山区原野西餐厅",
      "category": [
        "餐饮美食"
      ],
      "images": [
        "/店铺图片/原野西餐厅-1.jpg"
      ],
      "description": "店面及产品设计新颖独特、原创性强...",
      "address": "深圳市坪山区马峦街道坪环社区中昌路6-65",
      "coordinate": {
        "lat": 22.643,
        "lng": 114.268
      },
      "mapPosition": {
        "x": 3511,
        "y": 3173
      }
    },
    {
      "id": "005",
      "name": "深圳福源居商贸服务有限公司",
      "category": [
        "娱乐休闲"
      ],
      "images": [
        "/店铺图片/福源居-1.jpg",
        "/店铺图片/福源居-2.jpg"
      ],
      "description": "百年古宅，沉淀着时光的故事...",
      "address": "坪山区石井街道金龟半坝村3号",
      "coordinate": {
        "lat": 22.694,
        "lng": 114.224
      },
      "mapPosition": {
        "x": 4889,
        "y": 3849
      }
    },
    {
      "id": "006",
      "name": "火车头live",
      "category": [
        "娱乐休闲"
      ],
      "images": [
        "/店铺图片/火车头live-1.jpg",
        "/店铺图片/火车头live-2.jpg"
      ],
      "description": "火车头live·迷笛窝一家藏在城市里的音乐小酒馆...",
      "address": "广东省深圳市坪山区山路1号101",
      "coordinate": {
        "lat": 22.691,
        "lng": 114.208
      },
      "mapPosition": {
        "x": 3096,
        "y": 2844
      }
    },
    {
      "id": "007",
      "name": "深圳市坪山区又见咖啡工作室",
      "category": [
        "咖啡甜品"
      ],
      "images": [
        "/店铺图片/又见咖啡-1.jpg",
        "/店铺图片/又见咖啡-2.jpg",
        "/店铺图片/又见咖啡-3.jpg"
      ],
      "description": "又见咖啡工作室创立于2025年...",
      "address": "深圳市坪山区马峦街道江岭社区三河村96号",
      "coordinate": {
        "lat": 22.692,
        "lng": 114.227
      },
      "mapPosition": {
        "x": 3947,
        "y": 3883
      }
    },
    {
      "id": "008",
      "name": "深圳市坪山区开心爸爸面包店",
      "category": [
        "咖啡甜品"
      ],
      "images": [
        "/店铺图片/开心爸爸面包店-1.jpg",
        "/店铺图片/开心爸爸面包店-2.jpg",
        "/店铺图片/开心爸爸面包店-3.jpg"
      ],
      "description": "为了让更多的人吃到健康美味的无添加面包。",
      "address": "深圳市坪山区奥园翡翠东湾一期1栋外围二楼商铺223铺",
      "coordinate": {
        "lat": 22.682,
        "lng": 114.297
      },
      "mapPosition": {
        "x": 4211,
        "y": 2430
      }
    },
    {
      "id": "009",
      "name": "Somethingfor创新广场店",
      "category": [
        "咖啡甜品"
      ],
      "images": [
        "/店铺图片/Somethingfor创新广场店-1.jpg",
        "/店铺图片/Somethingfor创新广场店-2.jpg",
        "/店铺图片/Somethingfor创新广场店-3.jpg"
      ],
      "description": "Something For 是 2017 年成立于深圳的精品咖啡品牌...",
      "address": "坪山区坪山大道2007号创新广场群楼113号",
      "coordinate": {
        "lat": 22.629,
        "lng": 114.254
      },
      "mapPosition": {
        "x": 3092,
        "y": 2472
      }
    },
    {
      "id": "010",
      "name": "知亦cake＆cafe",
      "category": [
        "咖啡甜品"
      ],
      "images": [
        "/店铺图片/知亦cake＆cafe-1.jpg",
        "/店铺图片/知亦cake＆cafe-2.jpg",
        "/店铺图片/知亦cake＆cafe-3.jpg"
      ],
      "description": "本店主营精品咖啡与烘焙蛋糕...",
      "address": "深圳市坪山区马峦街道坪环社区大万万安东街23号北边101、102",
      "coordinate": {
        "lat": 22.628,
        "lng": 114.236
      },
      "mapPosition": {
        "x": 3086,
        "y": 3303
      }
    },
    {
      "id": "011",
      "name": "深圳市许愿甜点餐饮有限公司",
      "category": [
        "咖啡甜品"
      ],
      "images": [],
      "description": "许愿甜点作为一家扎根马峦街道的青年创业小店...",
      "address": "坪山区马峦街道牛盛路4号",
      "coordinate": {
        "lat": 22.617,
        "lng": 114.225
      },
      "mapPosition": {
        "x": 2684,
        "y": 3275
      }
    },
    {
      "id": "012",
      "name": "深圳市坪山区碧岭街道墩宝糖水铺",
      "category": [
        "咖啡甜品"
      ],
      "images": [
        "/店铺图片/墩宝糖水铺-1.jpg",
        "/店铺图片/墩宝糖水铺-2.jpg"
      ],
      "description": "墩宝糖水铺，新中式装修的暖心糖水铺。",
      "address": "深圳市坪山区碧岭街道碧岭社区新榕路127-1",
      "coordinate": {
        "lat": 22.625,
        "lng": 114.264
      },
      "mapPosition": {
        "x": 2227,
        "y": 3501
      }
    },
    {
      "id": "013",
      "name": "深圳市甜满满甜汤餐饮有限公司",
      "category": [
        "咖啡甜品"
      ],
      "images": [
        "/店铺图片/甜满满甜汤-1.jpg"
      ],
      "description": "深圳市甜满满甜汤餐饮有限公司是辖区内极具活力的青年创业典型...",
      "address": "深圳市坪山区碧岭街道沙湖社区碧沙北路26号蔚蓝左岸2栋2单元S110",
      "coordinate": {
        "lat": 22.622,
        "lng": 114.275
      },
      "mapPosition": {
        "x": 2861,
        "y": 3384
      }
    },
    {
      "id": "014",
      "name": "深圳市坪山区叁点叁柠檬茶饮品小吃店",
      "category": [
        "餐饮美食"
      ],
      "images": [],
      "description": "申请\"青春小店\"不仅是为了获得政策扶持...",
      "address": "深圳市坪山区龙田街道老坑社区井水龙新一巷5、6号102",
      "coordinate": {
        "lat": 22.663,
        "lng": 114.206
      },
      "mapPosition": {
        "x": 4036,
        "y": 1771
      }
    },
    {
      "id": "015",
      "name": "江岭三河（编织咖啡馆）",
      "category": [
        "咖啡甜品"
      ],
      "images": [],
      "description": "江岭三河（编织+咖啡馆）这里，是一杯咖啡与一段人生的编织...",
      "address": "深圳市坪山区江岭三河村五巷十号一楼",
      "coordinate": {
        "lat": 22.615,
        "lng": 114.251
      },
      "mapPosition": {
        "x": 3752,
        "y": 3784
      }
    },
    {
      "id": "016",
      "name": "树下陶",
      "category": [
        "娱乐休闲"
      ],
      "images": [
        "/店铺图片/树下陶-1.jpg",
        "/店铺图片/树下陶-2.jpg"
      ],
      "description": "以陶为媒，在泥土与指尖间...",
      "address": "深圳市坪山区坪山街道和平社区团结路10号111",
      "coordinate": {
        "lat": 22.657,
        "lng": 114.227
      },
      "mapPosition": {
        "x": 3274,
        "y": 2957
      }
    },
    {
      "id": "017",
      "name": "深圳市夕枭文化艺术有限公司（夕空间）",
      "category": [
        "娱乐休闲"
      ],
      "images": [
        "/店铺图片/夕空间-1.jpg",
        "/店铺图片/夕空间-2.jpg"
      ],
      "description": "夕空间，是一家艺术创作商店...",
      "address": "深圳市坪山区石井街道金龟社区金地西区3号101",
      "coordinate": {
        "lat": 22.629,
        "lng": 114.29
      },
      "mapPosition": {
        "x": 4351,
        "y": 2883
      }
    },
    {
      "id": "018",
      "name": "深圳花房柴窑面包坊",
      "category": [
        "娱乐休闲"
      ],
      "images": [
        "/店铺图片/花房柴窑面包坊-1.jpg",
        "/店铺图片/花房柴窑面包坊-2.jpg"
      ],
      "description": "深圳花房柴窑面包坊是一家有老旧房屋改造而来的庭院...",
      "address": "深圳市坪山区石井街道金龟社区金地西区9号",
      "coordinate": {
        "lat": 22.623,
        "lng": 114.229
      },
      "mapPosition": {
        "x": 4558,
        "y": 3927
      }
    },
    {
      "id": "019",
      "name": "艺海时光·小院",
      "category": [
        "娱乐休闲"
      ],
      "images": [],
      "description": "这里是艺海——坪山首席\"艺术+自然\"沉浸式文创研学共生体...",
      "address": "吉祥四路东部花卉中心（艺海时光·小院）",
      "coordinate": {
        "lat": 22.665,
        "lng": 114.239
      },
      "mapPosition": {
        "x": 4476,
        "y": 2579
      }
    },
    {
      "id": "020",
      "name": "南风知衣汉服体验",
      "category": [
        "娱乐休闲"
      ],
      "images": [],
      "description": "店铺为两个营业执照经营两个不同类目...",
      "address": "坪山老街彩虹路3号",
      "coordinate": {
        "lat": 22.603,
        "lng": 114.218
      },
      "mapPosition": {
        "x": 3209,
        "y": 3145
      }
    },
    {
      "id": "021",
      "name": "荷糖悦品",
      "category": [
        "咖啡甜品"
      ],
      "images": [
        "/店铺图片/荷糖悦品-1.jpg"
      ],
      "description": "荷糖悦品保留客家村建筑元素...",
      "address": "深圳市坪山区石井街道岭脚老村4号",
      "coordinate": {
        "lat": 22.651,
        "lng": 114.274
      },
      "mapPosition": {
        "x": 4090,
        "y": 2782
      }
    },
    {
      "id": "022",
      "name": "吖咪艺树园",
      "category": [
        "娱乐休闲"
      ],
      "images": [
        "/店铺图片/吖咪艺树园-1.jpg"
      ],
      "description": "集艺术庭院、咖啡轻食、活动场地于一体的复合空间...",
      "address": "深圳市坪山区马峦街道坪山雕塑艺术创艺园工作室1栋",
      "coordinate": {
        "lat": 22.654,
        "lng": 114.298
      },
      "mapPosition": {
        "x": 3280,
        "y": 3442
      }
    },
    {
      "id": "023",
      "name": "去峦山",
      "category": [
        "娱乐休闲"
      ],
      "images": [
        "/店铺图片/去峦山-1.jpg"
      ],
      "description": "碧岭路口马峦山脚下必经路集露营、烤肉、咖啡、火锅的休闲驿站",
      "address": "坪山区碧岭街道马峦郊野公园观瀑路101号",
      "coordinate": {
        "lat": 22.649,
        "lng": 114.219
      },
      "mapPosition": {
        "x": 2946,
        "y": 4338
      }
    },
    {
      "id": "024",
      "name": "New tennis新网网球馆",
      "category": [
        "娱乐休闲"
      ],
      "images": [
        "/店铺图片/New tennis新网网球馆-1.jpg"
      ],
      "description": "我们不只是一家发球机馆，而是一扇通向网球新的门...",
      "address": "坪山区潮悦荟2楼243号",
      "coordinate": {
        "lat": 22.617,
        "lng": 114.218
      },
      "mapPosition": {
        "x": 2883,
        "y": 3177
      }
    },
    {
      "id": "025",
      "name": "舒昕瑜伽馆",
      "category": [
        "娱乐休闲"
      ],
      "images": [
        "/店铺图片/舒昕瑜伽馆-1.jpg"
      ],
      "description": "舒昕瑜伽馆位于我社区下廖，店主为本地青年创业者...",
      "address": "坪山区坑梓街道沙田社区廖和路36号一二楼",
      "coordinate": {
        "lat": 22.686,
        "lng": 114.295
      },
      "mapPosition": {
        "x": 4403,
        "y": 1204
      }
    },
    {
      "id": "026",
      "name": "深圳坪山区金龟村隐归叁舍民宿中心",
      "category": [
        "特色民宿"
      ],
      "images": [
        "/店铺图片/隐归叁舍民宿-1.jpg",
        "/店铺图片/隐归叁舍民宿-2.jpg"
      ],
      "description": "隐归叁舍民宿是金龟首家以咏春为主题的民宿...",
      "address": "深圳市坪山区石井街道金龟社区田作村20号",
      "coordinate": {
        "lat": 22.615,
        "lng": 114.219
      },
      "mapPosition": {
        "x": 5171,
        "y": 3757
      }
    },
    {
      "id": "027",
      "name": "粤口口腔",
      "category": [
        "生活服务"
      ],
      "images": [],
      "description": "【粤口口腔·本土连锁品牌】作为坪山地区大型口腔连锁品牌...",
      "address": "坪山大道创新广场裙楼2楼（候机楼2F）",
      "coordinate": {
        "lat": 22.624,
        "lng": 114.224
      },
      "mapPosition": {
        "x": 3568,
        "y": 2392
      }
    },
    {
      "id": "028",
      "name": "深圳未来隽才大椿堂中医诊所",
      "category": [
        "生活服务"
      ],
      "images": [
        "/店铺图片/未来隽才大椿堂中医诊所-1.jpg",
        "/店铺图片/未来隽才大椿堂中医诊所-2.jpg"
      ],
      "description": "该店是一群由技术大学药学院学生创办的中医诊疗馆。",
      "address": "深圳市坪山区龙田街道竹坑社区石湖村2-1号",
      "coordinate": {
        "lat": 22.636,
        "lng": 114.221
      },
      "mapPosition": {
        "x": 4465,
        "y": 2264
      }
    },
    {
      "id": "029",
      "name": "云沁盲人推拿中心",
      "category": [
        "生活服务"
      ],
      "images": [
        "/店铺图片/云沁盲人推拿中心-1.jpg",
        "/店铺图片/云沁盲人推拿中心-2.jpg"
      ],
      "description": "本店专注盲人推拿理疗，技师均经过专业培训...",
      "address": "坪山区六联社区东纵路409号2楼",
      "coordinate": {
        "lat": 22.69,
        "lng": 114.222
      },
      "mapPosition": {
        "x": 2912,
        "y": 2954
      }
    }
  ]
}